City,Cloudiness,Country,Date,Humidity,Lat,Lng,Max Temp,Wind Speed
ponta do sol,10,BR,1567476054,59,-20.63,-46.0,69.11,2.04
paamiut,100,GL,1567476055,79,61.99,-49.67,43.55,21.7
sao filipe,74,CV,1567476055,86,14.9,-24.5,80.63,12.93
kaseda,75,JP,1567476055,74,31.42,130.32,84.2,6.93
grand gaube,75,MU,1567475990,82,-20.01,57.66,69.01,5.82
mataura,11,NZ,1567476056,57,-46.19,168.86,59.0,4.0
cabra,0,ES,1567476056,53,37.47,-4.43,77.0,2.24
faxinal,26,BR,1567476057,80,-24.0,-51.32,64.79,1.23
albany,40,US,1567476057,93,42.65,-73.75,66.2,5.82
castro,75,CL,1567475999,86,-42.48,-73.76,41.0,6.93
chuy,97,UY,1567476058,87,-33.69,-53.46,45.71,15.21
taoudenni,72,ML,1567476059,22,22.68,-3.98,98.27,13.27
san quintin,100,PH,1567476059,72,17.54,120.52,84.05,10.04
upernavik,76,GL,1567475972,56,72.79,-56.15,42.11,8.63
xuddur,93,SO,1567476060,76,4.12,43.89,71.09,18.59
hobart,40,AU,1567475952,45,-42.88,147.33,64.99,9.17
cidreira,0,BR,1567476061,72,-30.17,-50.22,52.73,3.24
hilo,20,US,1567475911,58,19.71,-155.08,86.0,8.05
khatanga,87,RU,1567475982,61,71.98,102.47,50.21,5.48
kahului,40,US,1567476063,52,20.89,-156.47,89.6,24.16
pisco,90,PE,1567475930,82,-13.71,-76.2,62.6,6.93
busselton,31,AU,1567476064,41,-33.64,115.35,59.0,15.84
doha,0,QA,1567476029,79,25.29,51.53,89.6,6.93
vila velha,20,BR,1567476040,74,-3.71,-38.6,79.0,14.99
carnarvon,0,ZA,1567476000,22,-30.97,22.13,49.85,5.61
rikitea,100,PF,1567476065,88,-23.12,-134.97,69.47,26.37
dunedin,0,NZ,1567476039,52,-45.87,170.5,59.0,11.99
new norfolk,40,AU,1567476066,45,-42.78,147.06,64.99,9.17
anori,0,BR,1567476067,71,-3.74,-61.66,78.29,2.06
alta floresta,79,BR,1567476067,32,-9.87,-56.08,83.87,3.27
kapaa,20,US,1567476067,58,22.08,-159.32,87.8,11.41
samarai,99,PG,1567476068,75,-10.62,150.67,73.97,9.44
hithadhoo,86,MV,1567476068,75,-0.6,73.08,82.97,9.35
lagoa,0,PT,1567476068,56,37.14,-8.45,75.0,5.82
mehndawal,75,IN,1567476069,100,26.98,83.11,80.6,3.36
saint-philippe,90,CA,1567476069,100,45.36,-73.48,64.99,5.48
gondar,0,PT,1567476070,68,41.82,-8.78,77.0,5.82
balkhash,0,KZ,1567475983,28,46.84,74.98,59.75,7.7
ilulissat,75,GL,1567476071,75,69.22,-51.1,42.8,21.07
puerto ayora,92,EC,1567476016,94,-0.74,-90.35,70.0,4.0
unity,9,CA,1567476072,84,52.44,-109.15,59.0,8.99
ostrovnoy,90,RU,1567476072,83,68.05,39.51,57.23,17.56
nikolskoye,75,RU,1567476073,82,59.7,30.79,63.0,11.18
middletown,1,US,1567475841,88,39.52,-84.4,72.0,3.36
gayny,19,RU,1567476074,90,60.3,54.33,45.17,6.11
nogliki,100,RU,1567476075,75,51.8,143.14,58.31,18.12
mar del plata,0,AR,1567476076,49,-46.43,-67.52,38.33,18.01
norman wells,75,CA,1567476077,81,65.28,-126.83,51.8,4.7
jinchang,5,CN,1567476078,27,38.52,102.19,73.97,4.52
bambous virieux,75,MU,1567476078,82,-20.34,57.76,69.01,5.82
punta arenas,0,CL,1567476079,69,-53.16,-70.91,39.2,18.34
aykhal,90,RU,1567476079,86,65.95,111.51,37.4,6.71
coahuayana,81,MX,1567476079,90,18.62,-100.35,73.79,3.4
butaritari,79,KI,1567476080,63,3.07,172.79,83.33,2.46
tasiilaq,57,GL,1567476081,60,65.61,-37.64,41.0,8.05
san jeronimo,62,PE,1567476081,92,-13.65,-73.37,47.87,0.67
laguna,40,BZ,1567476082,88,16.17,-88.94,80.6,0.96
ushuaia,75,AR,1567475928,93,-54.81,-68.31,33.8,29.97
bluff,0,AU,1567476083,10,-23.58,149.07,85.13,8.48
shima,20,JP,1567476083,79,34.34,136.82,84.2,5.82
vaini,75,IN,1567476083,94,15.34,74.49,69.8,9.17
vardo,75,US,1567476084,100,39.62,-77.74,73.0,4.52
victoria,75,BN,1567476005,70,5.28,115.24,86.0,2.24
geraldton,75,CA,1567476085,75,49.72,-86.95,44.6,2.24
atuona,3,PF,1567476085,75,-9.8,-139.03,79.01,16.26
namibe,17,AO,1567476086,86,-15.19,12.15,63.71,11.45
husavik,100,CA,1567476086,55,50.56,-96.99,55.99,3.0
elko,1,US,1567476087,11,40.83,-115.76,89.6,5.82
talnakh,75,RU,1567476087,87,69.49,88.39,42.8,8.95
port alfred,0,ZA,1567476088,88,-33.59,26.89,55.99,4.0
pevek,0,RU,1567476089,79,69.7,170.27,37.25,8.72
dongsheng,0,CN,1567476090,63,29.72,112.52,80.27,9.84
karasjok,100,NO,1567476090,100,69.47,25.52,48.2,12.75
thompson,90,CA,1567476091,62,55.74,-97.86,53.6,6.93
eureka,1,US,1567476068,82,40.8,-124.16,69.01,11.41
dancheng,18,CN,1567476091,63,33.63,115.18,79.73,5.82
pendleton,1,US,1567475842,94,34.65,-82.78,80.6,4.9
mnogovershinnyy,0,RU,1567476092,58,53.94,139.92,60.65,7.4
kodiak,1,US,1567476093,88,39.95,-94.76,80.6,5.82
tongchuan,0,CN,1567476093,68,34.9,108.95,71.6,11.18
kimbe,100,PG,1567476093,58,-5.56,150.15,87.29,6.44
grindavik,0,IS,1567476094,81,63.84,-22.43,42.8,11.41
bredasdorp,0,ZA,1567476094,93,-34.53,20.04,42.8,1.12
boa vista,0,BR,1567475913,70,2.82,-60.67,84.2,4.7
micheweni,46,TZ,1567476095,80,-4.97,39.83,77.75,12.37
necochea,89,AR,1567476096,69,-38.55,-58.74,42.01,11.01
tuktoyaktuk,20,CA,1567476096,61,69.44,-133.03,48.2,16.11
katsuura,75,JP,1567476097,70,33.93,134.5,87.01,3.36
qaanaaq,19,GL,1567476097,53,77.48,-69.36,31.49,7.02
bilma,100,NE,1567476097,21,18.69,12.92,90.35,3.09
nabire,93,ID,1567476098,77,-3.36,135.5,76.49,4.79
kieta,35,PG,1567476098,69,-6.22,155.63,83.87,8.21
san carlos de bariloche,0,AR,1567476099,54,-41.13,-71.31,28.4,6.93
turukhansk,100,RU,1567476099,85,65.8,87.96,52.73,5.08
jan kempdorp,0,ZA,1567476099,26,-27.92,24.84,44.81,6.29
arraial do cabo,20,BR,1567476100,88,-22.97,-42.02,69.8,5.82
sao jose da coroa grande,68,BR,1567476100,94,-8.9,-35.15,70.19,3.2
bereznik,0,RU,1567476100,92,62.86,42.71,48.77,4.61
fare,100,PF,1567476101,80,-16.7,-151.02,76.67,24.38
pingliang,92,CN,1567476101,76,35.54,106.68,59.03,10.74
severo-kurilsk,100,RU,1567476092,96,50.68,156.12,50.03,22.01
grand-bourg,0,GP,1567476102,94,15.88,-61.31,78.8,2.24
manuk mangkaw,50,PH,1567476103,75,4.8,119.85,83.87,14.16
georgetown,40,GY,1567476088,78,6.8,-58.16,82.4,9.17
milton,0,AU,1567476103,26,-35.32,150.44,72.0,3.36
kloulklubed,90,PW,1567476104,79,7.04,134.26,84.2,17.22
jamestown,1,AU,1567476096,45,-33.21,138.6,66.95,16.69
eenhana,0,NA,1567476104,9,-17.48,16.34,69.8,6.93
san vicente,0,EC,1567476105,83,-0.59,-80.41,69.8,6.93
cap malheureux,75,MU,1567476105,82,-19.98,57.61,69.01,5.82
kirra,96,GR,1567476106,48,38.43,22.45,71.01,1.99
jalu,0,LY,1567476106,37,29.03,21.55,77.57,7.7
ouesso,76,CG,1567476107,95,1.61,16.05,69.47,2.8
sabang,99,PH,1567476107,74,13.8,121.11,86.0,1.99
resistencia,0,AR,1567476108,71,-27.45,-58.99,57.2,4.7
mehamn,99,NO,1567476058,97,71.03,27.85,49.31,9.55
pryluky,60,UA,1567476108,60,50.6,32.39,65.15,2.37
damietta,0,EG,1567476109,83,31.42,31.81,78.8,5.82
kutum,83,SD,1567476109,61,14.2,24.66,76.13,2.46
huanren,0,CN,1567476110,43,41.26,125.37,80.09,3.02
bonthe,78,SL,1567476110,92,7.53,-12.5,76.13,6.04
provideniya,90,RU,1567476000,87,64.42,-173.23,51.8,11.18
klaksvik,10,FO,1567476087,87,62.23,-6.59,42.8,10.27
luderitz,0,NA,1567476112,50,-26.65,15.16,57.2,1.12
hagenow,99,DE,1567476112,91,53.43,11.19,55.99,1.01
lebu,75,ET,1567476113,82,8.96,38.73,59.0,4.7
bethel,90,US,1567476113,82,60.79,-161.76,59.0,19.46
kavieng,30,PG,1567476114,75,-2.57,150.8,82.97,8.68
turbat,100,PK,1567476114,67,26.0,63.05,83.69,8.55
zhigansk,100,RU,1567476115,72,66.77,123.37,44.27,10.22
waipawa,99,NZ,1567476115,70,-39.94,176.59,55.99,4.0
bosaso,78,SO,1567476116,63,11.28,49.18,89.81,5.99
singkang,75,MY,1567476116,78,2.1,102.8,82.4,3.36
kaitangata,64,NZ,1567476117,60,-46.28,169.85,55.99,5.01
torbay,75,CA,1567476092,93,47.66,-52.73,57.99,11.41
karratha,20,AU,1567476118,12,-20.74,116.85,89.45,2.64
seydi,18,NE,1567476118,66,13.34,7.75,79.73,8.97
ayolas,25,PY,1567476119,72,-27.39,-56.84,52.73,6.46
puerto colombia,75,CO,1567476119,94,10.99,-74.96,77.0,6.93
iwanai,0,JP,1567476119,60,42.97,140.51,69.11,7.83
saint anthony,1,US,1567476120,17,43.97,-111.68,86.0,14.99
sheridan,75,US,1567476112,33,39.65,-105.03,87.01,6.51
castlebar,100,IE,1567476121,100,53.86,-9.3,60.01,27.0
padang,100,ID,1567476038,84,-0.92,100.36,81.53,16.11
hermanus,0,ZA,1567476117,94,-34.42,19.24,53.01,2.55
umm kaddadah,9,SD,1567476123,53,13.6,26.69,82.79,7.02
batemans bay,18,AU,1567476123,47,-35.71,150.18,68.0,8.01
cherskiy,0,RU,1567475998,38,68.75,161.3,50.75,2.77
manggar,96,ID,1567476124,57,-2.88,108.27,87.47,9.44
avarua,100,CK,1567475852,53,-21.21,-159.78,71.6,11.41
ribeira grande,1,PT,1567476126,85,38.52,-28.7,72.35,16.15
evensk,1,RU,1567476126,43,61.92,159.24,54.35,6.04
chokurdakh,100,RU,1567476127,51,70.62,147.9,49.49,5.03
chapais,75,CA,1567476127,65,49.78,-74.86,44.6,6.93
ashland,1,US,1567475948,100,38.48,-82.64,75.2,2.01
aswan,0,EG,1567476128,25,24.09,32.9,86.0,5.82
akureyri,0,IS,1567476129,86,65.68,-18.09,37.4,1.12
barrow,97,AR,1567476129,81,-38.31,-60.23,37.43,10.67
bontang,95,ID,1567476130,43,0.12,117.47,89.99,4.05
clyde river,90,CA,1567476130,86,70.47,-68.59,39.2,4.7
murindo,100,CO,1567476130,94,6.98,-76.75,75.23,1.01
silver city,40,US,1567476131,24,32.77,-108.28,82.4,5.82
iqaluit,20,CA,1567476131,86,63.75,-68.52,39.2,3.36
drumnadrochit,75,GB,1567476132,100,57.34,-4.48,53.01,4.7
surgut,90,RU,1567476132,100,61.25,73.4,51.8,4.47
aklavik,20,CA,1567476133,37,68.22,-135.01,53.6,12.75
maralal,18,KE,1567476134,86,1.1,36.7,60.47,7.7
vila,0,IT,1567476134,55,45.18,8.4,73.0,6.93
atbasar,100,KZ,1567475987,87,51.81,68.36,46.25,8.37
minbu,100,MM,1567476135,96,20.18,94.88,75.41,2.71
hualmay,100,PE,1567475956,89,-11.1,-77.61,60.29,12.97
comodoro rivadavia,0,AR,1567476136,60,-45.87,-67.48,39.2,11.41
east london,0,ZA,1567476136,83,-33.02,27.91,50.39,4.74
galesong,20,ID,1567476136,37,-5.32,119.37,86.0,4.7
pinhao,93,BR,1567476137,90,-25.7,-51.66,55.43,1.05
quatre cocos,75,MU,1567476137,82,-20.21,57.76,69.01,5.82
dikson,96,RU,1567476138,92,73.51,80.55,42.29,9.75
dabat,53,ET,1567476138,82,12.98,37.77,64.43,1.52
portland,90,US,1567476000,93,43.66,-70.25,64.99,3.09
nemuro,40,JP,1567476139,47,43.32,145.57,75.2,11.41
cayenne,58,GF,1567476139,94,4.94,-52.33,77.0,3.36
brownsville,75,US,1567476140,74,25.91,-97.49,84.99,3.36
paulista,100,BR,1567476141,75,-6.6,-37.62,71.99,6.91
bud,96,NO,1567476141,81,62.91,6.91,51.8,3.36
cape town,0,ZA,1567476005,93,-33.93,18.42,54.0,4.7
conceicao do mato dentro,0,BR,1567475868,85,-19.04,-43.42,63.71,0.74
coihaique,0,CL,1567476142,97,-45.58,-72.07,32.0,2.24
salisbury,90,GB,1567476143,87,51.07,-1.8,60.01,4.7
soyo,0,AO,1567476143,85,-6.13,12.37,71.99,10.07
flinders,0,AU,1567476144,26,-34.58,150.85,75.0,3.36
nongan,0,CN,1567476144,64,44.43,125.17,80.01,8.95
palmer,75,AU,1567476145,87,-34.85,139.16,61.0,8.05
tiksi,88,RU,1567476099,78,71.64,128.87,42.65,7.09
birao,100,CF,1567476146,90,10.3,22.78,72.71,4.74
homer,90,US,1567475989,87,59.64,-151.54,62.01,13.69
saldanha,0,PT,1567476146,53,41.42,-6.55,61.55,5.57
verkhnetulomskiy,0,RU,1567476147,82,68.61,31.8,57.2,8.95
shebunino,0,RU,1567476147,100,57.66,40.04,44.6,2.24
cartagena,20,ES,1567476148,78,37.63,-1.0,78.8,11.16
port lincoln,0,AU,1567476148,77,-34.72,135.86,56.51,16.17
constitucion,90,MX,1567475876,93,23.99,-104.67,62.01,4.7
ozerne,0,UA,1567476149,91,50.18,28.74,62.63,7.07
port hedland,99,AU,1567476150,45,-20.31,118.58,82.4,10.29
tilichiki,10,RU,1567476150,48,60.47,166.1,56.87,11.21
soe,69,EE,1567476151,93,57.91,26.05,55.4,6.93
coquimbo,90,CL,1567476151,81,-29.95,-71.34,53.6,3.36
airai,0,TL,1567476152,46,-8.93,125.41,81.71,6.22
lavumisa,1,ZA,1567476152,93,-27.31,31.88,54.53,2.42
pueblo nuevo,90,AR,1567476152,31,-32.93,-68.73,44.6,8.05
quzhou,100,CN,1567476153,80,28.97,118.86,78.83,1.61
neiafu,40,TO,1567476153,57,-18.65,-173.98,80.6,9.17
sao joao da barra,0,BR,1567476154,90,-21.64,-41.05,69.83,3.0
esperance,40,AU,1567476154,71,-33.86,121.89,57.2,20.8
bom jesus,0,BR,1567476155,43,-9.08,-44.36,72.71,1.74
souillac,0,FR,1567476155,71,45.6,-0.6,57.99,1.12
nador,0,MA,1567476156,88,35.17,-2.93,77.0,4.7
itacare,40,BR,1567476156,83,-14.28,-39.0,77.0,4.7
cerrito,75,CO,1567476156,100,6.84,-72.7,66.2,9.17
mocuba,59,MZ,1567476157,96,-16.84,36.99,66.05,3.53
yumen,0,CN,1567476157,23,40.29,97.04,80.81,15.23
tres arroyos,97,AR,1567476157,81,-38.38,-60.28,37.43,10.67
athabasca,19,CA,1567476158,76,54.72,-113.29,53.45,5.61
yulara,0,AU,1567476074,5,-25.24,130.99,80.6,11.41
fairbanks,75,US,1567476037,37,64.84,-147.72,69.8,4.7
lhokseumawe,100,ID,1567476159,67,5.18,97.15,82.97,1.99
sao francisco do sul,90,BR,1567476160,93,-26.24,-48.64,57.99,2.24
ancud,75,CL,1567476160,86,-41.87,-73.83,41.0,6.93
omboue,100,GA,1567476161,82,-1.57,9.26,74.87,8.63
iroquois falls,20,CA,1567476161,80,48.76,-80.69,41.0,4.7
hamilton,40,CA,1567476004,88,43.26,-79.87,70.0,4.7
srednekolymsk,21,RU,1567476162,30,67.46,153.71,57.95,5.93
ranot,100,TH,1567476162,61,7.78,100.32,86.93,11.9
swan river,100,CA,1567476163,98,52.11,-101.27,43.55,10.11
eyl,0,SO,1567476163,73,7.98,49.82,73.97,15.77
heihe,40,RU,1567476163,93,50.24,127.51,60.8,4.47
west bay,20,CA,1567476046,73,49.34,-123.21,73.99,12.75
hasaki,75,JP,1567476140,83,35.73,140.83,78.8,11.41
qasigiannguit,75,GL,1567476165,75,68.82,-51.19,42.8,9.66
vitim,67,RU,1567476165,48,59.44,112.57,62.45,7.63
yellowknife,75,CA,1567475882,76,62.45,-114.38,50.0,2.24
faanui,100,PF,1567476167,81,-16.48,-151.75,77.57,23.69
yantal,85,RU,1567476167,54,56.85,105.25,62.63,0.38
oriximina,22,BR,1567475918,61,-1.77,-55.87,83.33,4.76
anadyr,0,RU,1567476168,70,64.73,177.51,48.2,13.42
kaberamaido,100,UG,1567476168,95,1.76,33.16,64.97,2.8
thinadhoo,94,MV,1567476169,72,0.53,72.93,82.97,8.34
sioux lookout,75,CA,1567476169,66,50.1,-91.92,50.0,4.7
bellegarde-sur-valserine,0,FR,1567476169,82,46.11,5.83,62.6,4.7
la asuncion,30,AR,1567476067,52,-26.05,-65.39,45.17,2.73
negara,58,ID,1567476170,78,-8.36,114.62,75.59,7.45
itoman,40,JP,1567476171,66,26.12,127.67,87.8,12.75
khasan,0,RU,1567476171,65,42.43,130.64,77.75,4.79
acapulco,75,MX,1567476171,70,16.86,-99.88,86.0,9.17
tsimlyansk,92,RU,1567476172,70,47.65,42.1,65.15,4.0
sao felix do xingu,1,BR,1567476048,50,-6.64,-51.99,77.03,1.3
minab,12,IR,1567476173,83,27.15,57.07,84.2,7.58
nanortalik,67,GL,1567475951,91,60.14,-45.24,40.49,1.48
agirish,100,RU,1567476173,96,61.92,63.02,48.59,5.12
kuningan,96,ID,1567476142,47,-6.98,108.49,83.15,2.75
nagahama,100,JP,1567476174,67,35.49,136.29,89.01,3.0
bage,100,IN,1567476175,98,12.95,75.85,70.19,3.22
constantine,20,DZ,1567476175,93,36.36,6.61,62.6,1.12
zhanakorgan,29,KZ,1567476176,22,43.91,67.25,66.77,4.38
kavaratti,85,IN,1567476120,81,10.57,72.64,82.07,16.22
marsh harbour,100,BS,1567475955,83,26.54,-77.06,82.07,57.42
tabou,96,CI,1567476050,94,4.42,-7.36,73.61,4.32
daru,86,PG,1567476177,60,-9.07,143.21,79.37,11.9
jamame,35,SO,1567476178,86,0.07,42.75,73.79,6.76
khash,40,IR,1567476179,13,28.22,61.21,72.17,2.71
rundu,0,NA,1567476179,21,-17.91,19.77,62.6,3.36
seoul,75,KR,1567476020,73,37.57,126.98,77.0,3.36
sorong,98,ID,1567475960,85,-0.86,131.25,79.01,8.63
antalaha,21,MG,1567476180,97,-14.9,50.28,60.65,3.8
kayes,90,ML,1567475969,74,14.44,-11.44,78.65,4.03
vazhiny,50,RU,1567476181,95,60.96,34.04,55.07,4.18
port elizabeth,40,US,1567475953,83,39.31,-74.98,77.0,8.05
ust-kuyga,0,RU,1567476182,39,70.0,135.55,61.37,6.93
batagay-alyta,69,RU,1567476183,80,67.8,130.41,43.01,4.12
palana,98,RU,1567476183,71,59.08,159.95,50.93,15.86
kara-tyube,44,RU,1567476183,43,44.63,45.44,64.79,5.97
manaus,20,BR,1567476184,74,-3.13,-59.98,82.4,1.12
port macquarie,0,AU,1567475985,24,-31.43,152.91,77.0,12.75
aripuana,2,BR,1567476184,46,-9.17,-60.63,80.09,1.57
tupik,100,RU,1567476185,87,54.43,119.94,58.31,2.28
jian,100,IN,1567476185,64,25.65,87.89,89.81,5.88
mogadishu,40,SO,1567476186,78,2.04,45.34,77.0,17.22
sao miguel do araguaia,0,BR,1567476186,25,-13.28,-50.16,76.85,3.89
magistralnyy,100,RU,1567476187,69,56.17,107.45,54.89,4.25
lavrentiya,100,RU,1567476145,97,65.58,-170.99,44.99,12.15
suba,52,CN,1567476187,73,28.73,103.51,70.37,3.98
fortuna,1,US,1567475996,82,40.6,-124.16,66.99,11.41
fallon,1,US,1567476188,39,46.84,-105.12,78.8,13.87
rocha,96,UY,1567476189,91,-34.48,-54.34,40.31,6.4
kamaishi,75,JP,1567476190,78,39.28,141.86,73.4,3.36
mirabad,40,IR,1567476190,13,28.27,61.33,72.17,2.71
lebedinyy,65,RU,1567476190,53,58.52,125.52,61.37,11.92
san patricio,33,PY,1567476191,74,-26.98,-56.83,52.01,6.24
yaan,100,NG,1567476191,93,7.38,8.57,72.71,7.54
ambilobe,54,MG,1567476136,71,-13.19,49.05,69.65,4.94
andra,100,RU,1567476192,97,62.52,65.89,48.59,4.59
marsa matruh,0,EG,1567476193,73,31.35,27.25,73.4,10.36
kodinsk,9,RU,1567476194,55,58.6,99.18,60.29,4.36
brokopondo,0,SR,1567476194,88,5.06,-54.98,78.8,4.7
shingu,40,JP,1567476194,74,33.72,135.99,84.2,4.7
maudaha,0,IN,1567476195,58,25.68,80.11,91.25,4.18
peniche,0,PT,1567476196,49,39.36,-9.38,73.4,2.24
acari,45,BR,1567476196,69,-6.44,-36.64,73.25,16.26
lafayette,1,US,1567476103,94,30.22,-92.02,86.0,7.52
huilong,100,CN,1567476109,80,31.15,106.5,73.07,3.02
tezu,98,IN,1567476198,66,27.93,96.16,84.23,2.68
ithaca,20,US,1567476132,100,42.44,-76.5,62.6,2.01
skelleftea,0,SE,1567476198,93,64.75,20.95,50.0,5.82
kruisfontein,0,ZA,1567476104,80,-34.0,24.73,50.21,6.96
engels,20,RU,1567476199,92,51.5,46.12,55.99,5.95
angoram,100,PG,1567476200,48,-4.06,144.07,93.77,2.33
zverinogolovskoye,97,RU,1567476200,86,54.46,64.85,46.79,5.3
castelnaudary,0,FR,1567476201,72,43.32,1.95,62.01,9.17
los llanos de aridane,0,ES,1567476144,64,28.66,-17.92,69.8,6.93
sola,84,TZ,1567476101,63,-3.17,33.8,67.31,5.64
pahrump,1,US,1567475967,19,36.21,-115.98,97.0,0.74
lorengau,90,PG,1567476202,74,-2.02,147.27,83.51,11.68
zhuhai,0,CN,1567476203,49,40.71,112.04,69.8,4.47
alibag,90,IN,1567476203,100,18.64,72.88,77.0,8.05
santiago,100,PH,1567476203,91,16.69,121.54,75.41,1.68
narsaq,78,GL,1567476166,81,60.91,-46.05,48.2,4.7
bandarbeyla,0,SO,1567476205,71,9.49,50.81,75.05,23.2
vila franca do campo,40,PT,1567476205,68,37.72,-25.43,71.01,9.17
egvekinot,100,RU,1567476206,79,66.32,-179.17,39.59,19.6
longyearbyen,75,NO,1567476184,74,78.22,15.63,37.4,17.22
sartana,15,UA,1567476207,45,47.17,37.7,64.97,4.25
nigran,0,ES,1567476207,68,42.14,-8.81,73.0,5.82
nago,40,IT,1567476207,77,45.88,10.89,73.4,6.93
troitskoye,86,RU,1567476067,66,52.98,84.68,59.57,5.23
erie,20,US,1567476208,77,42.13,-80.09,66.0,10.42
kailua,75,US,1567476209,40,21.39,-157.74,89.6,16.11
tarauaca,15,BR,1567476210,80,-8.16,-70.77,75.77,3.44
meulaboh,100,ID,1567476210,76,4.14,96.13,81.53,1.59
gasa,100,BT,1567476210,74,27.91,89.73,44.27,4.03
tuatapere,26,NZ,1567476211,57,-46.13,167.69,59.0,4.0
sinnamary,40,GF,1567476211,81,5.38,-52.96,81.71,14.12
otautau,25,NZ,1567476211,57,-46.14,168.0,59.0,4.0
prince rupert,40,CA,1567476212,68,54.32,-130.32,64.4,8.05
rio gallegos,0,AR,1567476115,60,-51.62,-69.22,39.2,28.86
winslow,90,GB,1567476214,82,51.94,-0.88,61.0,8.05
catuday,100,PH,1567476214,81,16.29,119.81,82.43,21.94
tubuala,40,PA,1567476214,83,9.52,-79.03,77.0,10.29
takoradi,84,GH,1567476215,94,4.89,-1.75,73.43,2.91
lathi,94,IN,1567476215,88,21.72,71.39,80.09,7.14
saint-pierre,0,FR,1567476050,87,48.95,4.24,46.4,3.36
oistins,20,BB,1567475991,74,13.07,-59.53,82.4,14.99
badarpur,100,IN,1567476217,68,24.87,92.56,86.21,2.55
inirida,98,CO,1567476217,91,3.87,-67.92,74.33,2.35
te anau,7,NZ,1567476218,68,-45.41,167.72,47.69,2.17
tiznit,0,MA,1567476218,94,29.7,-9.73,65.51,3.8
digha,100,IN,1567476218,78,21.62,87.51,84.59,9.82
saskylakh,28,RU,1567476219,56,71.97,114.09,45.35,13.6
xining,67,CN,1567476219,51,36.62,101.77,73.0,5.91
sibolga,100,ID,1567476088,78,1.74,98.78,80.99,3.62
guerrero negro,0,MX,1567476220,82,27.97,-114.04,71.99,11.43
alwar,0,IN,1567476220,61,27.56,76.61,87.65,1.32
lazaro cardenas,75,MX,1567476089,28,28.39,-105.62,86.0,9.17
salinopolis,53,BR,1567476222,81,-0.61,-47.36,80.81,16.04
crotone,0,IT,1567476222,75,39.09,17.12,71.45,3.96
sur,100,OM,1567476145,57,22.57,59.53,82.07,9.44
ambon,0,FR,1567476223,93,47.55,-2.56,59.0,5.82
pitimbu,20,BR,1567476223,94,-7.47,-34.81,75.2,8.05
stromness,75,CA,1567476224,88,42.87,-79.55,70.0,4.7
hirara,40,JP,1567476225,74,24.8,125.28,87.8,16.11
los andes,0,CL,1567476225,43,-32.83,-70.6,52.0,6.93
la rioja,0,AR,1567476025,42,-29.41,-66.86,39.23,2.3
atakpame,82,TG,1567476226,98,7.53,1.13,68.39,2.06
mampong,99,GH,1567476226,98,7.06,-1.4,70.01,5.08
lydenburg,0,ZA,1567476227,69,-25.1,30.46,47.69,2.13
kaeo,100,NZ,1567476227,100,-35.1,173.78,61.0,16.42
komadi,62,HU,1567476228,77,47.0,21.5,68.0,2.24
predivinsk,95,RU,1567476229,87,57.07,93.44,55.43,2.44
bilibino,8,RU,1567476229,42,68.06,166.44,43.73,4.88
mahebourg,75,MU,1567476230,82,-20.41,57.7,69.01,5.82
mount gambier,75,AU,1567476230,76,-37.83,140.78,57.2,10.29
sterling,75,US,1567476105,100,39.0,-77.4,75.2,4.25
teahupoo,90,PF,1567476231,69,-17.83,-149.27,80.6,5.82
shahreza,0,IR,1567476231,36,32.01,51.87,60.11,2.21
straumen,0,NO,1567476232,93,63.87,11.3,50.0,11.41
san policarpo,82,PH,1567476232,74,12.18,125.51,82.79,5.59
yafran,0,LY,1567476233,83,32.06,12.53,66.05,2.82
keti bandar,100,PK,1567476233,86,24.14,67.45,83.15,13.11
manakara,4,MG,1567476234,96,-22.14,48.01,62.81,2.89
shubarkuduk,0,KZ,1567476234,67,49.15,56.49,51.65,7.65
cabo san lucas,75,MX,1567476165,66,22.89,-109.91,84.99,13.87
qaqortoq,78,GL,1567475983,81,60.72,-46.03,48.2,4.7
mayo,44,CA,1567476236,73,63.59,-135.9,51.65,2.59
hegang,100,CN,1567476236,47,47.34,130.28,71.63,4.45
mata,0,PT,1567476237,45,40.68,-7.46,73.99,5.99
simao,6,CN,1567476237,58,22.76,100.79,81.53,1.3
taunggyi,57,MM,1567476238,76,20.78,97.03,76.31,4.16
solnechnyy,0,RU,1567476052,46,50.72,136.64,69.65,4.12
richards bay,93,ZA,1567476098,75,-28.77,32.06,68.57,4.38
kota kinabalu,75,MY,1567476239,62,5.98,116.07,87.8,4.7
gambela,79,ET,1567476239,79,8.25,34.59,67.31,3.78
shimoda,40,JP,1567476240,79,34.7,138.93,86.0,4.7
eskil,0,TR,1567476241,42,38.4,33.41,68.75,4.12
alice springs,0,AU,1567476241,7,-23.7,133.88,82.4,6.93
harper,1,US,1567476242,32,30.3,-99.24,86.0,3.36
camiri,43,BO,1567476242,42,-20.04,-63.52,51.65,3.71
wad rawah,100,SD,1567476243,58,15.16,33.13,84.59,11.65
strezhevoy,0,RU,1567476244,100,60.73,77.6,48.2,3.09
lagunas,0,PE,1567476245,71,-5.23,-75.68,78.11,3.11
mackay,20,CA,1567476246,45,53.65,-115.58,68.0,4.7
paragould,1,US,1567476090,83,36.06,-90.5,80.6,3.36
tevriz,85,RU,1567476247,84,57.51,72.4,50.75,3.87
letychiv,52,UA,1567476247,93,49.38,27.62,62.09,6.98
vryburg,0,ZA,1567476248,53,-26.96,24.73,36.89,2.89
verkhnevilyuysk,100,RU,1567476248,95,63.45,120.31,45.35,5.28
westport,90,US,1567476074,83,41.14,-73.36,72.0,5.82
fomboni,0,KM,1567476249,81,-12.28,43.74,77.75,16.42
kulhudhuffushi,100,MV,1567476172,77,6.62,73.07,81.89,8.37
eidfjord,100,NO,1567476249,95,60.47,7.07,39.23,4.5
doka,94,SD,1567476123,91,13.52,35.76,73.43,5.23
lipin bor,54,RU,1567476250,96,60.26,37.97,54.35,4.76
poum,75,MK,1567476242,82,41.28,20.71,60.8,3.36
juegang,100,CN,1567476251,90,32.31,121.18,80.01,6.35
najran,0,SA,1567476251,17,17.54,44.22,84.2,4.7
carahue,0,CL,1567476252,60,-38.71,-73.16,41.0,8.05
cocobeach,40,GA,1567476252,83,1.01,9.58,78.8,8.05
morehead,1,US,1567476253,78,38.18,-83.43,73.4,2.53
romitan,0,UZ,1567476253,44,39.93,64.38,57.2,9.17
serafimovich,6,RU,1567476254,94,49.58,42.73,57.99,5.17
walvis bay,0,NA,1567476092,93,-22.95,14.51,54.0,1.01
belmonte,0,PT,1567476162,53,40.36,-7.35,77.0,5.77
san cristobal,0,HN,1567476090,67,14.68,-86.92,69.83,4.03
vieques,40,PR,1567476255,78,18.43,-65.83,84.2,4.7
banjar,100,ID,1567476256,55,-7.37,108.54,82.43,3.87
port blair,100,IN,1567476183,82,11.67,92.75,82.43,21.54
touros,20,BR,1567476085,88,-5.2,-35.46,75.2,8.05
pervomayskoye,98,RU,1567476257,65,57.07,86.23,52.91,6.2
santa isabel do rio negro,71,BR,1567476168,86,-0.41,-65.02,75.41,2.73
porbandar,39,IN,1567476258,84,21.64,69.61,82.61,13.29
blagoyevo,0,RU,1567476259,77,63.37,47.92,46.43,3.13
san pedro,0,AR,1567476259,45,-33.68,-59.66,42.01,4.0
maraba,0,BR,1567476109,69,-5.35,-49.1,82.4,3.36
gat,20,SN,1567476260,94,14.69,-16.54,77.0,4.7
la mata,0,ES,1567476260,60,40.62,-0.28,62.01,1.01
chimbote,33,PE,1567476261,91,-9.08,-78.59,60.11,12.88
bahadurganj,75,IN,1567476261,94,26.26,87.82,77.0,9.17
olot,75,ES,1567476262,100,42.18,2.49,73.0,3.36
redlands,1,US,1567476005,52,34.06,-117.19,96.8,6.49
shahr-e babak,0,IR,1567476262,26,30.12,55.12,70.19,3.69
kilifi,20,KE,1567476263,94,-3.63,39.85,71.6,5.82
linxia,54,CN,1567476263,54,35.6,103.21,65.87,4.85
juneau,90,US,1567476264,93,58.3,-134.42,55.4,16.11
waingapu,23,ID,1567476264,47,-9.65,120.26,82.79,12.62
alofi,12,NU,1567476265,61,-19.06,-169.92,77.0,13.87
shilovo,0,RU,1567476265,77,51.55,39.09,60.8,4.47
itimadpur,40,IN,1567476266,94,27.25,78.2,82.4,1.12
la baule-escoublac,0,FR,1567476266,81,47.28,-2.4,59.0,3.36
prainha,6,BR,1567476266,73,-1.8,-53.48,78.29,2.51
salta,0,AR,1567476267,50,-24.79,-65.41,53.6,4.7
orlik,0,PL,1567476267,87,53.95,17.74,54.0,5.82
kalmunai,98,LK,1567476268,51,7.42,81.82,85.85,3.83
mahajanga,20,MG,1567476268,83,-15.72,46.32,71.6,5.82
marzuq,67,YE,1567476268,33,14.4,46.47,76.67,3.74
puerto narino,75,CO,1567476269,100,-3.77,-70.38,77.0,3.36
belaya gora,0,RU,1567476270,30,68.54,146.19,61.55,5.77
dingle,96,PH,1567476167,72,11.0,122.67,84.77,11.72
bogorodskoye,0,RU,1567476270,54,52.37,140.44,62.99,11.25
talas,0,KG,1567476271,96,42.52,72.24,69.01,2.19
ust-kulom,88,RU,1567476271,89,61.69,53.69,43.19,3.51
maceio,75,BR,1567476271,88,-9.67,-35.74,73.4,8.05
baoding,0,CN,1567476272,30,38.86,115.49,85.49,5.06
ontario,1,US,1567476158,30,34.07,-117.65,91.4,14.99
sambava,0,MG,1567476111,89,-14.27,50.17,62.99,3.44
veraval,20,FR,1567476273,87,49.65,0.71,55.0,4.7
oum hadjer,100,TD,1567476273,72,13.3,19.7,80.09,5.91
petropavlovsk-kamchatskiy,90,RU,1567476273,93,53.05,158.65,55.4,6.71
lamont,20,CA,1567476274,55,53.76,-112.78,64.4,3.36
arona,0,IT,1567476274,55,45.76,8.56,73.0,6.93
banda aceh,86,ID,1567476274,82,5.56,95.32,82.07,17.22
xichang,93,CN,1567476275,91,27.88,102.25,59.03,2.77
derzhavinsk,100,KZ,1567476275,80,51.1,66.31,49.85,16.26
pangody,100,RU,1567476139,64,65.85,74.49,49.13,10.45
plainfield,75,US,1567476211,88,40.63,-74.41,75.2,4.7
mandalgovi,0,MN,1567476276,31,45.76,106.27,75.23,15.68
dabola,98,GN,1567476277,97,10.74,-11.11,66.05,1.86
suntar,100,RU,1567476239,71,62.16,117.65,58.31,9.17
zuwarah,0,LY,1567476278,73,32.93,12.08,78.65,10.45
bar harbor,90,US,1567476172,100,44.39,-68.2,62.01,3.36
taylors,1,US,1567476278,73,36.01,-85.36,75.2,2.95
salalah,90,OM,1567476279,94,17.01,54.1,78.8,3.36
kindu,100,CD,1567476279,90,-2.95,25.92,73.07,1.45
morant bay,20,JM,1567476102,66,17.88,-76.41,84.2,4.7
storforshei,93,NO,1567476280,86,66.4,14.52,39.59,6.13
garhi yasin,40,PK,1567476281,79,27.91,68.51,86.0,4.9
azare,84,NG,1567476281,74,11.67,10.19,76.49,6.69
nacala,24,MZ,1567476281,96,-14.56,40.69,67.13,6.91
concarneau,0,FR,1567476282,100,47.88,-3.92,55.4,3.36
bathsheba,20,BB,1567476282,74,13.22,-59.52,82.4,14.99
ust-nera,16,RU,1567476283,43,64.57,143.24,54.53,8.75
avera,40,US,1567476091,83,33.19,-82.53,78.8,4.7
kemecse,0,HU,1567476284,72,48.07,21.8,68.0,16.11
saint-paul,0,FR,1567476284,93,45.22,1.9,54.0,2.24
mwinilunga,0,ZM,1567476101,42,-11.73,24.43,63.53,7.4
vanimo,59,PG,1567476285,77,-2.67,141.3,81.89,8.1
asosa,97,ET,1567476285,91,10.07,34.53,63.89,6.11
pangnirtung,100,CA,1567476286,95,66.15,-65.72,39.23,3.6
kuandian,0,CN,1567476286,55,40.73,124.78,76.85,3.83
makakilo city,40,US,1567476110,48,21.35,-158.09,89.6,8.05
teodoro sampaio,23,BR,1567476096,66,-22.53,-52.17,71.63,5.37
presidencia roque saenz pena,5,AR,1567476287,58,-26.79,-60.44,54.71,4.27
bereda,0,ES,1567476288,82,43.27,-7.54,64.99,2.24
ossora,0,RU,1567476288,49,59.24,163.07,56.87,6.2
kisangani,74,CD,1567476289,97,0.52,25.21,70.55,1.54
tayoltita,100,MX,1567476289,93,24.11,-105.93,64.43,4.32
verkhnyaya inta,99,RU,1567476290,78,65.99,60.32,47.33,1.43
celestun,42,MX,1567476290,85,20.87,-90.4,82.79,11.86
freetown,100,BS,1567476291,88,26.61,-78.36,81.17,90.75
umm lajj,48,SA,1567476058,76,25.02,37.27,84.77,8.57
dudinka,75,RU,1567475992,87,69.41,86.18,42.8,8.95
asasa,100,ET,1567476293,90,7.1,39.2,49.13,1.92
mapastepec,99,MX,1567476293,86,15.44,-92.9,76.13,3.42
novobirilyussy,64,RU,1567476294,55,56.95,90.69,57.41,3.67
progreso,75,UY,1567476100,65,-34.68,-56.22,48.99,11.41
rawson,0,AR,1567476043,61,-43.3,-65.11,35.45,11.61
myitkyina,83,MM,1567476295,70,25.38,97.4,83.51,2.17
la ronge,90,CA,1567476295,93,55.1,-105.3,50.0,6.93
manta,0,RO,1567476296,46,45.1,24.1,62.27,3.85
isangel,90,VU,1567476061,88,-19.55,169.27,75.2,11.41
broken hill,0,AU,1567476297,14,-31.97,141.45,77.0,11.41
carbonia,0,IT,1567476297,83,39.17,8.53,73.4,11.41
ugoofaaru,100,MV,1567476298,76,5.67,73.0,82.43,8.79
beringovskiy,100,RU,1567476298,91,63.05,179.32,43.73,9.71
syracuse,1,US,1567476080,93,43.05,-76.15,62.6,2.08
lompoc,1,US,1567476299,45,34.64,-120.46,82.4,8.05
rawlins,1,US,1567476271,12,41.79,-107.24,84.2,5.82
huarmey,81,PE,1567476299,90,-10.07,-78.15,60.29,13.87
wote,83,KE,1567476300,75,-1.78,37.63,63.71,1.01
back mountain,90,US,1567476300,93,41.34,-76.0,68.0,3.4
tourlaville,75,FR,1567476301,93,49.64,-1.57,61.0,8.05
buchanan,96,LR,1567476169,89,5.88,-10.05,76.49,14.9
praia da vitoria,40,PT,1567476303,77,38.73,-27.07,69.8,16.84
rehoboth,0,NA,1567476303,8,-23.31,17.08,52.55,7.99
gonc,0,HU,1567476303,72,48.47,21.28,62.6,16.11
ahero,75,KE,1567476304,77,-0.17,34.92,68.0,5.82
porto novo,75,BR,1567476304,82,-23.68,-45.44,64.4,3.36
gorontalo,58,ID,1567476299,53,0.54,123.06,84.59,11.21
rosignano marittimo,0,IT,1567476306,93,43.41,10.47,75.0,5.82
isiolo,62,KE,1567476306,67,0.35,37.58,69.11,13.24
mattawa,40,CA,1567476307,87,46.32,-78.7,55.4,5.82
lata,65,IN,1567476307,78,30.78,78.62,50.03,4.43
broome,18,GB,1567476114,77,52.47,1.45,60.01,10.29
camaguey,75,CU,1567476006,83,21.38,-77.92,82.4,6.93
kudahuvadhoo,100,MV,1567476309,72,2.67,72.89,83.15,8.41
yokadouma,71,CM,1567476309,99,3.52,15.05,67.13,1.45
panguna,100,PG,1567476168,79,-6.32,155.48,82.61,17.25
mongu,0,ZM,1567476310,48,-15.27,23.14,61.19,5.28
oktyabrskoye,0,RU,1567476310,87,56.73,85.44,48.2,4.47
vostok,11,RU,1567476088,56,46.45,135.83,66.59,7.34
labuan,75,BN,1567476061,70,5.28,115.24,86.0,2.24
brae,15,GB,1567476312,87,60.4,-1.35,48.2,5.82
sitka,0,US,1567476313,60,37.17,-99.65,81.0,11.99
weligama,100,LK,1567476314,83,5.97,80.42,80.99,10.42
dzaoudzi,75,YT,1567476314,88,-12.79,45.27,77.0,16.11
kenitra,0,MA,1567476315,83,34.26,-6.57,72.0,4.7
moerai,42,PF,1567476315,58,-22.43,-151.33,69.47,11.3
naerbo,75,NO,1567476316,100,58.67,5.65,57.99,11.41
el vigia,40,MX,1567476316,46,26.85,-109.72,93.2,10.29
mounana,34,GA,1567476317,94,-1.38,13.16,69.29,2.3
codrington,0,AU,1567476317,40,-28.95,153.24,75.0,4.7
buala,69,SB,1567476318,71,-8.15,159.59,84.23,3.76
minatitlan,90,MX,1567476318,83,19.39,-104.05,86.0,1.3
noyabrsk,100,RU,1567476318,97,63.2,75.45,49.49,3.44
darhan,30,MN,1567476319,67,49.49,105.92,69.65,3.15
